{
  "petShops": [
    {
      "id": 1,
      "name": "Paw Paradise Megastore",
      "address": "123 Pet Lane, Connaught Place, Delhi",
      "phone": "9876543210",
      "image": "https://images.unsplash.com/photo-1601758228041-f3b2795255f1?w=400&h=200&fit=crop",
      "website": "https://pawparadise.com",
      "rating": 4.8,
      "reviews": 245,
      "type": "Premium Pet Store",
      "isVerified": true,
      "isTopRated": true,
      "hours": "Mon-Sun: 9:00 AM - 9:00 PM",
      "specialties": ["Premium Food", "Accessories", "Grooming Supplies"],
      "customerCount": 2500,
      "description": "Your one-stop destination for premium pet products and expert advice.",
      "features": ["Home Delivery", "Expert Consultation", "Loyalty Program", "24/7 Support"]
    },
    {
      "id": 2,
      "name": "Furry Friends Emporium",
      "address": "456 Bark Street, Khan Market, Delhi",
      "phone": "9876543211",
      "image": "https://images.unsplash.com/photo-1574158622682-e40e69881006?w=400&h=200&fit=crop",
      "website": "https://furryfriends.com",
      "rating": 4.6,
      "reviews": 189,
      "type": "Specialty Store",
      "isVerified": true,
      "isTopRated": false,
      "hours": "Tue-Sun: 10:00 AM - 8:00 PM",
      "specialties": ["Organic Food", "Toys", "Training Equipment"],
      "customerCount": 1800,
      "description": "Specializing in organic and eco-friendly pet products.",
      "features": ["Organic Products", "Eco-Friendly", "Local Sourcing", "Expert Staff"]
    },
    {
      "id": 3,
      "name": "The Pet Hub Central",
      "address": "789 Meow Avenue, Lajpat Nagar, Delhi",
      "phone": "9876543212",
      "image": "https://images.unsplash.com/photo-1552053831-71594a27632d?w=400&h=200&fit=crop",
      "website": "https://pethub.com",
      "rating": 4.9,
      "reviews": 312,
      "type": "Complete Pet Center",
      "isVerified": true,
      "isTopRated": true,
      "hours": "Daily: 8:00 AM - 10:00 PM",
      "specialties": ["Veterinary Care", "Grooming", "Boarding", "Food & Supplies"],
      "customerCount": 3200,
      "description": "Complete pet care center with in-house veterinary services.",
      "features": ["Vet Services", "Grooming Salon", "Pet Boarding", "Emergency Care"]
    },
    {
      "id": 4,
      "name": "Pets & More Superstore",
      "address": "321 Woof Street, Karol Bagh, Delhi",
      "phone": "9876543213",
      "image": "https://images.unsplash.com/photo-1444464666168-49d633b86797?w=400&h=200&fit=crop",
      "website": "https://petsandmore.com",
      "rating": 4.5,
      "reviews": 167,
      "type": "Pet Superstore",
      "isVerified": false,
      "isTopRated": false,
      "hours": "Mon-Sat: 9:00 AM - 8:00 PM",
      "specialties": ["Bulk Food", "Aquarium Supplies", "Bird Care"],
      "customerCount": 1500,
      "description": "Large selection of pet products at competitive prices.",
      "features": ["Bulk Pricing", "Wide Selection", "Aquarium Setup", "Bird Specialists"]
    },
    {
      "id": 5,
      "name": "Happy Tails Pet Boutique",
      "address": "567 Pet Paradise Road, South Extension, Delhi",
      "phone": "9876543214",
      "image": "https://images.unsplash.com/photo-1520637836862-4d197d17c23a?w=400&h=200&fit=crop",
      "website": "https://happytails.com",
      "rating": 4.7,
      "reviews": 128,
      "type": "Premium Boutique",
      "isVerified": true,
      "isTopRated": false,
      "hours": "Mon-Sun: 11:00 AM - 7:00 PM",
      "specialties": ["Designer Accessories", "Premium Treats", "Custom Products"],
      "customerCount": 980,
      "description": "Luxury pet boutique with designer accessories and premium products.",
      "features": ["Designer Items", "Custom Orders", "Gift Wrapping", "Personal Shopping"]
    },
    {
      "id": 6,
      "name": "Animal Kingdom Store",
      "address": "890 Pet Central, Janakpuri, Delhi",
      "phone": "9876543215",
      "image": "https://images.unsplash.com/photo-1583337130417-3346a1be7dee?w=400&h=250&fit=crop",
      "website": "https://animalkingdom.com",
      "rating": 4.4,
      "reviews": 203,
      "type": "Multi-Species Store",
      "isVerified": true,
      "isTopRated": false,
      "hours": "Daily: 9:30 AM - 8:30 PM",
      "specialties": ["Exotic Pets", "Reptile Supplies", "Small Animals"],
      "customerCount": 1200,
      "description": "Specialists in exotic pets and rare animal supplies.",
      "features": ["Exotic Specialists", "Rare Supplies", "Expert Guidance", "Import Services"]
    },
    {
      "id": 7,
      "name": "Doggy Delights Store",
      "address": "234 Canine Corner, Rohini, Delhi",
      "phone": "9876543216",
      "image": "https://images.unsplash.com/photo-1601758228041-f3b2795255f1?w=400&h=200&fit=crop",
      "website": "https://doggydelights.com",
      "rating": 4.6,
      "reviews": 156,
      "type": "Dog Specialty Store",
      "isVerified": true,
      "isTopRated": false,
      "hours": "Mon-Sun: 10:00 AM - 8:00 PM",
      "specialties": ["Dog Food", "Dog Toys", "Training Aids"],
      "customerCount": 1400,
      "description": "Everything your dog needs for a happy and healthy life.",
      "features": ["Dog Training", "Nutrition Advice", "Breed Specialists", "Grooming"]
    },
    {
      "id": 8,
      "name": "Kitty Kingdom",
      "address": "345 Feline Street, Pitampura, Delhi",
      "phone": "9876543217",
      "image": "https://images.unsplash.com/photo-1574158622682-e40e69881006?w=400&h=200&fit=crop",
      "website": "https://kittykingdom.com",
      "rating": 4.8,
      "reviews": 198,
      "type": "Cat Specialty Store",
      "isVerified": true,
      "isTopRated": true,
      "hours": "Tue-Sun: 9:00 AM - 7:00 PM",
      "specialties": ["Cat Food", "Litter", "Cat Trees", "Toys"],
      "customerCount": 1600,
      "description": "The purr-fect place for all your cat's needs.",
      "features": ["Cat Behavior Advice", "Premium Litter", "Scratching Posts", "Health Products"]
    },
    {
      "id": 9,
      "name": "Aquatic World",
      "address": "456 Marine Drive, Vasant Kunj, Delhi",
      "phone": "9876543218",
      "image": "https://images.unsplash.com/photo-1520637836862-4d197d17c23a?w=400&h=200&fit=crop",
      "website": "https://aquaticworld.com",
      "rating": 4.7,
      "reviews": 134,
      "type": "Aquarium Specialist",
      "isVerified": true,
      "isTopRated": false,
      "hours": "Daily: 10:00 AM - 7:00 PM",
      "specialties": ["Fish", "Aquarium Setup", "Water Testing", "Marine Life"],
      "customerCount": 950,
      "description": "Creating beautiful underwater worlds for your home.",
      "features": ["Custom Aquariums", "Fish Health", "Water Maintenance", "Equipment"]
    },
    {
      "id": 10,
      "name": "Feathered Friends Store",
      "address": "567 Avian Avenue, Dwarka, Delhi",
      "phone": "9876543219",
      "image": "https://images.unsplash.com/photo-1444464666168-49d633b86797?w=400&h=200&fit=crop",
      "website": "https://featheredfriends.com",
      "rating": 4.5,
      "reviews": 112,
      "type": "Bird Specialty Store",
      "isVerified": false,
      "isTopRated": false,
      "hours": "Mon-Sat: 9:00 AM - 6:00 PM",
      "specialties": ["Bird Food", "Cages", "Bird Toys", "Health Supplements"],
      "customerCount": 780,
      "description": "Everything for your feathered companions.",
      "features": ["Bird Care Advice", "Custom Cages", "Bird Breeding", "Health Checkups"]
    },
    {
      "id": 11,
      "name": "Pet Paradise Plus",
      "address": "678 Animal Street, Gurgaon, Haryana",
      "phone": "9876543220",
      "image": "https://images.unsplash.com/photo-1583337130417-3346a1be7dee?w=400&h=250&fit=crop",
      "website": "https://petparadiseplus.com",
      "rating": 4.9,
      "reviews": 267,
      "type": "Premium Chain Store",
      "isVerified": true,
      "isTopRated": true,
      "hours": "Daily: 8:00 AM - 10:00 PM",
      "specialties": ["All Pets", "Premium Brands", "Grooming", "Vet Services"],
      "customerCount": 3500,
      "description": "Premium pet care chain with comprehensive services.",
      "features": ["Chain Benefits", "Membership Discounts", "Online Ordering", "Express Delivery"]
    },
    {
      "id": 12,
      "name": "Paws & Claws Outlet",
      "address": "789 Pet Plaza, Noida, Uttar Pradesh",
      "phone": "9876543221",
      "image": "https://images.unsplash.com/photo-1552053831-71594a27632d?w=400&h=200&fit=crop",
      "website": "https://pawsandclaws.com",
      "rating": 4.3,
      "reviews": 89,
      "type": "Discount Store",
      "isVerified": false,
      "isTopRated": false,
      "hours": "Mon-Sun: 9:00 AM - 8:00 PM",
      "specialties": ["Budget Products", "Bulk Buying", "Generic Brands"],
      "customerCount": 1100,
      "description": "Quality pet products at affordable prices.",
      "features": ["Budget Friendly", "Bulk Discounts", "Generic Options", "Weekly Sales"]
    },
    {
      "id": 13,
      "name": "Elite Pet Boutique",
      "address": "890 Luxury Lane, Greater Kailash, Delhi",
      "phone": "9876543222",
      "image": "https://images.unsplash.com/photo-1520637836862-4d197d17c23a?w=400&h=200&fit=crop",
      "website": "https://elitepetboutique.com",
      "rating": 4.9,
      "reviews": 178,
      "type": "Luxury Boutique",
      "isVerified": true,
      "isTopRated": true,
      "hours": "Mon-Sat: 11:00 AM - 7:00 PM",
      "specialties": ["Luxury Items", "Designer Brands", "Custom Products"],
      "customerCount": 650,
      "description": "Luxury pet products for discerning pet parents.",
      "features": ["Designer Brands", "Personal Service", "VIP Membership", "Home Consultation"]
    },
    {
      "id": 14,
      "name": "Pet Care Central",
      "address": "123 Care Street, Faridabad, Haryana",
      "phone": "9876543223",
      "image": "https://images.unsplash.com/photo-1574158622682-e40e69881006?w=400&h=200&fit=crop",
      "website": "https://petcarecentral.com",
      "rating": 4.6,
      "reviews": 145,
      "type": "Health Focused Store",
      "isVerified": true,
      "isTopRated": false,
      "hours": "Daily: 9:00 AM - 7:00 PM",
      "specialties": ["Health Products", "Supplements", "Medical Supplies"],
      "customerCount": 1250,
      "description": "Focus on health and wellness for all pets.",
      "features": ["Health Consultation", "Prescription Products", "Wellness Plans", "Expert Advice"]
    },
    {
      "id": 15,
      "name": "Urban Pet Store",
      "address": "234 City Center, Ghaziabad, Uttar Pradesh",
      "phone": "9876543224",
      "image": "https://images.unsplash.com/photo-1444464666168-49d633b86797?w=400&h=200&fit=crop",
      "website": "https://urbanpetstore.com",
      "rating": 4.4,
      "reviews": 123,
      "type": "Modern Pet Store",
      "isVerified": true,
      "isTopRated": false,
      "hours": "Mon-Sun: 10:00 AM - 9:00 PM",
      "specialties": ["Modern Products", "Tech Gadgets", "Smart Accessories"],
      "customerCount": 980,
      "description": "Modern pet products for the tech-savvy pet parent.",
      "features": ["Smart Products", "Tech Support", "App Integration", "Digital Services"]
    },
    {
      "id": 16,
      "name": "Natural Pet Foods",
      "address": "345 Organic Avenue, Mehrauli, Delhi",
      "phone": "9876543225",
      "image": "https://images.unsplash.com/photo-1601758228041-f3b2795255f1?w=400&h=200&fit=crop",
      "website": "https://naturalpetfoods.com",
      "rating": 4.8,
      "reviews": 167,
      "type": "Natural Products Store",
      "isVerified": true,
      "isTopRated": true,
      "hours": "Tue-Sun: 9:00 AM - 6:00 PM",
      "specialties": ["Organic Food", "Natural Treats", "Herbal Products"],
      "customerCount": 1350,
      "description": "Natural and organic nutrition for healthier pets.",
      "features": ["Organic Certified", "Natural Ingredients", "Nutrition Advice", "Custom Diets"]
    },
    {
      "id": 17,
      "name": "Pet Accessories Hub",
      "address": "456 Fashion Street, Saket, Delhi",
      "phone": "9876543226",
      "image": "https://images.unsplash.com/photo-1583337130417-3346a1be7dee?w=400&h=250&fit=crop",
      "website": "https://petaccessorieshub.com",
      "rating": 4.5,
      "reviews": 134,
      "type": "Accessories Store",
      "isVerified": false,
      "isTopRated": false,
      "hours": "Mon-Sat: 10:00 AM - 8:00 PM",
      "specialties": ["Collars", "Leashes", "Beds", "Fashion Items"],
      "customerCount": 890,
      "description": "Stylish accessories for fashionable pets.",
      "features": ["Fashion Forward", "Custom Sizing", "Trend Updates", "Style Advice"]
    },
    {
      "id": 18,
      "name": "Healthy Paws Clinic Store",
      "address": "567 Medical Lane, Lajpat Nagar, Delhi",
      "phone": "9876543227",
      "image": "https://images.unsplash.com/photo-1552053831-71594a27632d?w=400&h=200&fit=crop",
      "website": "https://healthypaws.com",
      "rating": 4.7,
      "reviews": 156,
      "type": "Veterinary Store",
      "isVerified": true,
      "isTopRated": false,
      "hours": "Daily: 8:00 AM - 8:00 PM",
      "specialties": ["Medications", "Prescription Food", "Medical Equipment"],
      "customerCount": 1450,
      "description": "Medical supplies and prescription products for pets.",
      "features": ["Prescription Service", "Vet Consultation", "Medical Equipment", "Emergency Supplies"]
    },
    {
      "id": 19,
      "name": "Petland Express",
      "address": "678 Express Highway, Connaught Place, Delhi",
      "phone": "9876543228",
      "image": "https://images.unsplash.com/photo-1574158622682-e40e69881006?w=400&h=200&fit=crop",
      "website": "https://petlandexpress.com",
      "rating": 4.6,
      "reviews": 189,
      "type": "Quick Service Store",
      "isVerified": true,
      "isTopRated": false,
      "hours": "24/7",
      "specialties": ["Emergency Supplies", "Quick Service", "Express Delivery"],
      "customerCount": 2100,
      "description": "24/7 pet supplies for urgent needs.",
      "features": ["24/7 Service", "Emergency Delivery", "Quick Checkout", "Mobile App"]
    },
    {
      "id": 20,
      "name": "Exotic Pets Paradise",
      "address": "789 Exotic Lane, Vasant Vihar, Delhi",
      "phone": "9876543229",
      "image": "https://images.unsplash.com/photo-1520637836862-4d197d17c23a?w=400&h=200&fit=crop",
      "website": "https://exoticpetsparadise.com",
      "rating": 4.8,
      "reviews": 98,
      "type": "Exotic Pet Store",
      "isVerified": true,
      "isTopRated": true,
      "hours": "Mon-Fri: 10:00 AM - 6:00 PM",
      "specialties": ["Exotic Animals", "Rare Supplies", "Specialized Care"],
      "customerCount": 420,
      "description": "Specialized care for exotic and rare pets.",
      "features": ["Exotic Specialists", "Import License", "Rare Breeds", "Expert Care"]
    },
    {
      "id": 21,
      "name": "Budget Pet Supplies",
      "address": "890 Economy Street, Janakpuri, Delhi",
      "phone": "9876543230",
      "image": "https://images.unsplash.com/photo-1444464666168-49d633b86797?w=400&h=200&fit=crop",
      "website": "https://budgetpetsupplies.com",
      "rating": 4.2,
      "reviews": 76,
      "type": "Budget Store",
      "isVerified": false,
      "isTopRated": false,
      "hours": "Mon-Sun: 9:00 AM - 7:00 PM",
      "specialties": ["Low Prices", "Basic Supplies", "Bulk Options"],
      "customerCount": 1850,
      "description": "Affordable pet supplies for budget-conscious pet parents.",
      "features": ["Lowest Prices", "Bulk Savings", "Basic Quality", "Student Discounts"]
    },
    {
      "id": 22,
      "name": "Pet Grooming Studio",
      "address": "123 Beauty Boulevard, Khan Market, Delhi",
      "phone": "9876543231",
      "image": "https://images.unsplash.com/photo-1601758228041-f3b2795255f1?w=400&h=200&fit=crop",
      "website": "https://petgroomingstudio.com",
      "rating": 4.9,
      "reviews": 234,
      "type": "Grooming & Supplies",
      "isVerified": true,
      "isTopRated": true,
      "hours": "Tue-Sun: 9:00 AM - 6:00 PM",
      "specialties": ["Grooming Services", "Grooming Products", "Beauty Treatments"],
      "customerCount": 1750,
      "description": "Professional grooming services and premium grooming products.",
      "features": ["Professional Grooming", "Spa Services", "Beauty Products", "Styling"]
    },
    {
      "id": 23,
      "name": "Smart Pet Technology",
      "address": "234 Tech Valley, Cyber City, Gurgaon",
      "phone": "9876543232",
      "image": "https://images.unsplash.com/photo-1583337130417-3346a1be7dee?w=400&h=250&fit=crop",
      "website": "https://smartpettech.com",
      "rating": 4.7,
      "reviews": 145,
      "type": "Technology Store",
      "isVerified": true,
      "isTopRated": false,
      "hours": "Mon-Sat: 10:00 AM - 8:00 PM",
      "specialties": ["Smart Devices", "Pet Cameras", "Automated Feeders", "Health Monitors"],
      "customerCount": 680,
      "description": "Cutting-edge technology products for modern pet care.",
      "features": ["Latest Tech", "Smart Integration", "App Control", "IoT Devices"]
    },
    {
      "id": 24,
      "name": "Green Paws Eco Store",
      "address": "345 Eco Park, Green Valley, Noida",
      "phone": "9876543233",
      "image": "https://images.unsplash.com/photo-1552053831-71594a27632d?w=400&h=200&fit=crop",
      "website": "https://greenpawseco.com",
      "rating": 4.8,
      "reviews": 123,
      "type": "Eco-Friendly Store",
      "isVerified": true,
      "isTopRated": true,
      "hours": "Daily: 9:00 AM - 7:00 PM",
      "specialties": ["Eco Products", "Sustainable Items", "Biodegradable Supplies"],
      "customerCount": 750,
      "description": "Environmentally conscious pet products for eco-minded pet parents.",
      "features": ["Eco Certified", "Sustainable", "Zero Waste", "Carbon Neutral"]
    },
    {
      "id": 25,
      "name": "Ultimate Pet Experience",
      "address": "456 Premium Plaza, Select City Walk, Saket",
      "phone": "9876543234",
      "image": "https://images.unsplash.com/photo-1574158622682-e40e69881006?w=400&h=200&fit=crop",
      "website": "https://ultimatepetexperience.com",
      "rating": 4.9,
      "reviews": 289,
      "type": "Flagship Experience Store",
      "isVerified": true,
      "isTopRated": true,
      "hours": "Daily: 10:00 AM - 10:00 PM",
      "specialties": ["Premium Brands", "Experience Center", "All Services", "Luxury Products"],
      "customerCount": 4200,
      "description": "The ultimate destination for luxury pet products and premium services.",
      "features": ["Flagship Store", "Experience Center", "Concierge Service", "Premium Brands"]
    },
    {
      "id": 26,
      "name": "Drools Pet Store Mumbai",
      "address": "123 Bandra West, Mumbai, Maharashtra",
      "phone": "9876543235",
      "image": "https://images.unsplash.com/photo-1601758228041-f3b2795255f1?w=400&h=200&fit=crop",
      "website": "https://droolspets.com",
      "rating": 4.7,
      "reviews": 187,
      "type": "Brand Flagship Store",
      "isVerified": true,
      "isTopRated": true,
      "hours": "Mon-Sun: 9:00 AM - 9:00 PM",
      "specialties": ["Drools Products", "Premium Dog Food", "Cat Food", "Supplements"],
      "customerCount": 2100,
      "description": "Official Drools store with complete range of Indian pet nutrition products.",
      "features": ["Brand Authentic", "Nutrition Expert", "Home Delivery", "Loyalty Rewards"]
    },
    {
      "id": 27,
      "name": "Pedigree Care Center Bangalore",
      "address": "456 Koramangala, Bangalore, Karnataka",
      "phone": "9876543236",
      "image": "https://images.unsplash.com/photo-1574158622682-e40e69881006?w=400&h=200&fit=crop",
      "website": "https://pedigreecare.in",
      "rating": 4.8,
      "reviews": 234,
      "type": "Brand Care Center",
      "isVerified": true,
      "isTopRated": true,
      "hours": "Daily: 8:00 AM - 8:00 PM",
      "specialties": ["Pedigree Products", "Dog Nutrition", "Puppy Care", "Senior Dog Care"],
      "customerCount": 1850,
      "description": "Comprehensive care center for dogs with complete Pedigree product range.",
      "features": ["Breed Specialists", "Nutrition Plans", "Health Checkups", "Training Tips"]
    },
    {
      "id": 28,
      "name": "Whiskas World Chennai",
      "address": "789 T Nagar, Chennai, Tamil Nadu",
      "phone": "9876543237",
      "image": "https://images.unsplash.com/photo-1520637836862-4d197d17c23a?w=400&h=200&fit=crop",
      "website": "https://whiskasworld.in",
      "rating": 4.6,
      "reviews": 156,
      "type": "Cat Specialty Store",
      "isVerified": true,
      "isTopRated": false,
      "hours": "Tue-Sun: 9:30 AM - 7:30 PM",
      "specialties": ["Whiskas Products", "Cat Nutrition", "Kitten Care", "Cat Accessories"],
      "customerCount": 1200,
      "description": "Dedicated cat care store with complete Whiskas product lineup.",
      "features": ["Cat Experts", "Feline Nutrition", "Cat Behavior Tips", "Grooming Services"]
    },
    {
      "id": 29,
      "name": "Royal Canin Boutique Kolkata",
      "address": "321 Park Street, Kolkata, West Bengal",
      "phone": "9876543238",
      "image": "https://images.unsplash.com/photo-1552053831-71594a27632d?w=400&h=200&fit=crop",
      "website": "https://royalcanin.in",
      "rating": 4.9,
      "reviews": 278,
      "type": "Premium Nutrition Store",
      "isVerified": true,
      "isTopRated": true,
      "hours": "Mon-Sat: 10:00 AM - 8:00 PM",
      "specialties": ["Royal Canin Products", "Breed-Specific Food", "Therapeutic Diets", "Puppy/Kitten Food"],
      "customerCount": 980,
      "description": "Premium nutrition store specializing in breed-specific and therapeutic diets.",
      "features": ["Vet Recommendations", "Breed Nutrition", "Health Consultations", "Custom Diets"]
    },
    {
      "id": 30,
      "name": "Hills Science Diet Center Hyderabad",
      "address": "567 Banjara Hills, Hyderabad, Telangana",
      "phone": "9876543239",
      "image": "https://images.unsplash.com/photo-1444464666168-49d633b86797?w=400&h=200&fit=crop",
      "website": "https://hillspet.in",
      "rating": 4.8,
      "reviews": 203,
      "type": "Therapeutic Nutrition Store",
      "isVerified": true,
      "isTopRated": true,
      "hours": "Daily: 9:00 AM - 7:00 PM",
      "specialties": ["Hills Products", "Prescription Diets", "Weight Management", "Dental Care"],
      "customerCount": 750,
      "description": "Specialized nutrition store for pets with health conditions and special dietary needs.",
      "features": ["Prescription Diets", "Vet Partnerships", "Health Monitoring", "Expert Guidance"]
    },
    {
      "id": 31,
      "name": "Purepet Paradise Pune",
      "address": "890 FC Road, Pune, Maharashtra",
      "phone": "9876543240",
      "image": "https://images.unsplash.com/photo-1583337130417-3346a1be7dee?w=400&h=250&fit=crop",
      "website": "https://purepet.in",
      "rating": 4.5,
      "reviews": 134,
      "type": "Indian Brand Store",
      "isVerified": true,
      "isTopRated": false,
      "hours": "Mon-Sun: 8:30 AM - 8:30 PM",
      "specialties": ["Purepet Products", "Affordable Nutrition", "Local Ingredients", "Made in India"],
      "customerCount": 1600,
      "description": "Affordable quality nutrition with locally sourced ingredients for Indian pets.",
      "features": ["Made in India", "Local Sourcing", "Affordable Prices", "Quality Nutrition"]
    },
    {
      "id": 32,
      "name": "Farmina Natural Center Ahmedabad",
      "address": "234 Satellite, Ahmedabad, Gujarat",
      "phone": "9876543241",
      "image": "https://images.unsplash.com/photo-1601758228041-f3b2795255f1?w=400&h=200&fit=crop",
      "website": "https://farmina.in",
      "rating": 4.7,
      "reviews": 168,
      "type": "Natural Nutrition Store",
      "isVerified": true,
      "isTopRated": true,
      "hours": "Tue-Sun: 10:00 AM - 7:00 PM",
      "specialties": ["Farmina Products", "Natural Ingredients", "Grain-Free Options", "Ancestral Diets"],
      "customerCount": 890,
      "description": "Natural and ancestral nutrition with scientifically balanced formulas.",
      "features": ["Natural Ingredients", "Scientific Nutrition", "Grain-Free Options", "Expert Consultation"]
    },
    {
      "id": 33,
      "name": "Kennel Kitchen Jaipur",
      "address": "456 C-Scheme, Jaipur, Rajasthan",
      "phone": "9876543242",
      "image": "https://images.unsplash.com/photo-1574158622682-e40e69881006?w=400&h=200&fit=crop",
      "website": "https://kennelkitchen.in",
      "rating": 4.6,
      "reviews": 142,
      "type": "Premium Indian Brand",
      "isVerified": true,
      "isTopRated": false,
      "hours": "Mon-Sat: 9:00 AM - 8:00 PM",
      "specialties": ["Kennel Kitchen Products", "Premium Indian Food", "Raw Food", "Training Treats"],
      "customerCount": 720,
      "description": "Premium Indian pet food brand with focus on natural and raw nutrition.",
      "features": ["Indian Premium", "Raw Nutrition", "Natural Recipes", "Training Support"]
    },
    {
      "id": 34,
      "name": "SmartHeart Pet Zone Lucknow",
      "address": "789 Hazratganj, Lucknow, Uttar Pradesh",
      "phone": "9876543243",
      "image": "https://images.unsplash.com/photo-1520637836862-4d197d17c23a?w=400&h=200&fit=crop",
      "website": "https://smartheart.in",
      "rating": 4.4,
      "reviews": 98,
      "type": "Value Pet Store",
      "isVerified": false,
      "isTopRated": false,
      "hours": "Daily: 8:00 AM - 8:00 PM",
      "specialties": ["SmartHeart Products", "Value Pricing", "Complete Nutrition", "Local Distribution"],
      "customerCount": 1400,
      "description": "Affordable complete nutrition for pets with wide distribution across India.",
      "features": ["Value Pricing", "Wide Availability", "Complete Nutrition", "Local Support"]
    },
    {
      "id": 35,
      "name": "Chappi Corner Kanpur",
      "address": "123 Mall Road, Kanpur, Uttar Pradesh",
      "phone": "9876543244",
      "image": "https://images.unsplash.com/photo-1552053831-71594a27632d?w=400&h=200&fit=crop",
      "website": "https://chappi.in",
      "rating": 4.3,
      "reviews": 87,
      "type": "Budget Friendly Store",
      "isVerified": false,
      "isTopRated": false,
      "hours": "Mon-Sun: 7:00 AM - 9:00 PM",
      "specialties": ["Chappi Products", "Budget Options", "Basic Nutrition", "Wide Reach"],
      "customerCount": 2200,
      "description": "Budget-friendly pet food option with good nutrition for cost-conscious pet parents.",
      "features": ["Budget Friendly", "Basic Nutrition", "Wide Availability", "Trusted Brand"]
    },
    {
      "id": 36,
      "name": "Pawfect Pets Nagpur",
      "address": "567 Sitabuldi, Nagpur, Maharashtra",
      "phone": "9876543245",
      "image": "https://images.unsplash.com/photo-1444464666168-49d633b86797?w=400&h=200&fit=crop",
      "website": "https://pawfectpets.in",
      "rating": 4.7,
      "reviews": 176,
      "type": "Complete Pet Care",
      "isVerified": true,
      "isTopRated": true,
      "hours": "Daily: 9:00 AM - 8:00 PM",
      "specialties": ["Multi-Brand Store", "Grooming Services", "Vet Consultation", "Pet Accessories"],
      "customerCount": 1100,
      "description": "Complete pet care store with multiple brands and comprehensive services.",
      "features": ["Multi-Brand", "Full Services", "Expert Staff", "One-Stop Shop"]
    },
    {
      "id": 37,
      "name": "Petcare India Indore",
      "address": "890 Vijay Nagar, Indore, Madhya Pradesh",
      "phone": "9876543246",
      "image": "https://images.unsplash.com/photo-1583337130417-3346a1be7dee?w=400&h=250&fit=crop",
      "website": "https://petcareindia.com",
      "rating": 4.5,
      "reviews": 123,
      "type": "Health Focused Store",
      "isVerified": true,
      "isTopRated": false,
      "hours": "Tue-Sun: 9:30 AM - 7:30 PM",
      "specialties": ["Pet Health Products", "Supplements", "Medical Supplies", "Wellness Programs"],
      "customerCount": 850,
      "description": "Health-focused pet store with emphasis on wellness and preventive care.",
      "features": ["Health Focus", "Wellness Programs", "Medical Supplies", "Expert Advice"]
    },
    {
      "id": 38,
      "name": "Brit Care Center Bhopal",
      "address": "234 New Market, Bhopal, Madhya Pradesh",
      "phone": "9876543247",
      "image": "https://images.unsplash.com/photo-1601758228041-f3b2795255f1?w=400&h=200&fit=crop",
      "website": "https://brit.in",
      "rating": 4.8,
      "reviews": 189,
      "type": "European Brand Store",
      "isVerified": true,
      "isTopRated": true,
      "hours": "Mon-Sat: 10:00 AM - 7:00 PM",
      "specialties": ["Brit Products", "European Standards", "Super Premium Food", "Natural Ingredients"],
      "customerCount": 650,
      "description": "European quality pet food with natural ingredients and super premium standards.",
      "features": ["European Quality", "Natural Ingredients", "Super Premium", "Breed Specific"]
    },
    {
      "id": 39,
      "name": "Acana Orijen Store Chandigarh",
      "address": "456 Sector 17, Chandigarh, Punjab",
      "phone": "9876543248",
      "image": "https://images.unsplash.com/photo-1574158622682-e40e69881006?w=400&h=200&fit=crop",
      "website": "https://acanaorijen.in",
      "rating": 4.9,
      "reviews": 234,
      "type": "Ultra Premium Store",
      "isVerified": true,
      "isTopRated": true,
      "hours": "Daily: 10:00 AM - 6:00 PM",
      "specialties": ["Acana Products", "Orijen Products", "Biologically Appropriate", "Fresh Ingredients"],
      "customerCount": 420,
      "description": "Ultra-premium biologically appropriate pet food with fresh regional ingredients.",
      "features": ["Ultra Premium", "Fresh Ingredients", "Biologically Appropriate", "Regional Sourcing"]
    },
    {
      "id": 40,
      "name": "Taste of Wild India Guwahati",
      "address": "789 Pan Bazaar, Guwahati, Assam",
      "phone": "9876543249",
      "image": "https://images.unsplash.com/photo-1520637836862-4d197d17c23a?w=400&h=200&fit=crop",
      "website": "https://tasteofwild.in",
      "rating": 4.6,
      "reviews": 145,
      "type": "Wild Nutrition Store",
      "isVerified": true,
      "isTopRated": false,
      "hours": "Mon-Sun: 9:00 AM - 7:00 PM",
      "specialties": ["Taste of Wild Products", "Wild Nutrition", "Ancestral Diet", "Grain-Free Options"],
      "customerCount": 580,
      "description": "Wild nutrition inspired by ancestral diet with real meat and ancient grains.",
      "features": ["Wild Nutrition", "Ancestral Diet", "Real Meat", "Grain-Free Options"]
    },
    {
      "id": 41,
      "name": "Blue Buffalo Northeast Shillong",
      "address": "321 Police Bazaar, Shillong, Meghalaya",
      "phone": "9876543250",
      "image": "https://images.unsplash.com/photo-1552053831-71594a27632d?w=400&h=200&fit=crop",
      "website": "https://bluebuffalo.in",
      "rating": 4.7,
      "reviews": 167,
      "type": "Natural Pet Store",
      "isVerified": true,
      "isTopRated": true,
      "hours": "Tue-Sun: 10:00 AM - 6:00 PM",
      "specialties": ["Blue Buffalo Products", "Natural Food", "Life Bits", "Wilderness Line"],
      "customerCount": 380,
      "description": "Natural pet food with real meat, fruits, and vegetables for optimal nutrition.",
      "features": ["Natural Ingredients", "Real Meat", "Life Bits", "Holistic Nutrition"]
    },
    {
      "id": 42,
      "name": "Pro Plan Center Dehradun",
      "address": "567 Rajpur Road, Dehradun, Uttarakhand",
      "phone": "9876543251",
      "image": "https://images.unsplash.com/photo-1444464666168-49d633b86797?w=400&h=200&fit=crop",
      "website": "https://proplan.in",
      "rating": 4.8,
      "reviews": 198,
      "type": "Performance Nutrition",
      "isVerified": true,
      "isTopRated": true,
      "hours": "Daily: 8:30 AM - 7:30 PM",
      "specialties": ["Pro Plan Products", "Performance Nutrition", "Life Stage Specific", "Specialized Formulas"],
      "customerCount": 720,
      "description": "Advanced nutrition for pets at every life stage with scientifically proven benefits.",
      "features": ["Scientific Nutrition", "Life Stage Specific", "Performance Focus", "Vet Recommended"]
    },
    {
      "id": 43,
      "name": "Eukanuba Excellence Kochi",
      "address": "890 MG Road, Kochi, Kerala",
      "phone": "9876543252",
      "image": "https://images.unsplash.com/photo-1583337130417-3346a1be7dee?w=400&h=250&fit=crop",
      "website": "https://eukanuba.in",
      "rating": 4.9,
      "reviews": 212,
      "type": "Performance Pet Store",
      "isVerified": true,
      "isTopRated": true,
      "hours": "Mon-Sat: 9:30 AM - 7:30 PM",
      "specialties": ["Eukanuba Products", "Performance Nutrition", "Breed Health Nutrition", "Working Dogs"],
      "customerCount": 540,
      "description": "Premium performance nutrition designed for active dogs and optimal health.",
      "features": ["Performance Nutrition", "Breed Specific", "Active Dogs", "Optimal Health"]
    },
    {
      "id": 44,
      "name": "Desi Pets Bhubaneswar",
      "address": "123 Kharavel Nagar, Bhubaneswar, Odisha",
      "phone": "9876543253",
      "image": "https://images.unsplash.com/photo-1601758228041-f3b2795255f1?w=400&h=200&fit=crop",
      "website": "https://desipets.in",
      "rating": 4.4,
      "reviews": 134,
      "type": "Traditional Pet Store",
      "isVerified": false,
      "isTopRated": false,
      "hours": "Daily: 7:30 AM - 8:30 PM",
      "specialties": ["Local Products", "Traditional Care", "Ayurvedic Supplements", "Regional Specialties"],
      "customerCount": 980,
      "description": "Traditional pet care with local products and time-tested remedies.",
      "features": ["Traditional Care", "Local Products", "Ayurvedic Options", "Regional Expertise"]
    },
    {
      "id": 45,
      "name": "Petzone Express Visakhapatnam",
      "address": "456 Beach Road, Visakhapatnam, Andhra Pradesh",
      "phone": "9876543254",
      "image": "https://images.unsplash.com/photo-1574158622682-e40e69881006?w=400&h=200&fit=crop",
      "website": "https://petzoneexpress.in",
      "rating": 4.5,
      "reviews": 156,
      "type": "Express Service Store",
      "isVerified": true,
      "isTopRated": false,
      "hours": "24/7",
      "specialties": ["Quick Service", "Emergency Supplies", "Home Delivery", "Express Grooming"],
      "customerCount": 1320,
      "description": "Fast and convenient pet care services with 24/7 availability and quick delivery.",
      "features": ["24/7 Service", "Quick Delivery", "Emergency Support", "Express Services"]
    }
  ]
}
